City_ID,City,Country,Date,Lat,Lng,Max Temp,Humidity,Cloudiness,Wind Speed,Weather Description
0,Evanston,US,2022-02-02 21:41:33,42.0411,-87.6901,22.05,86,100,5.01,overcast clouds
1,Saint-Pierre,RE,2022-02-02 21:42:18,-21.3393,55.4781,80.28,89,75,37.98,light rain
2,Elko,US,2022-02-02 21:42:18,41.0002,-115.5012,26.74,41,8,8.01,clear sky
3,Ostrovnoy,RU,2022-02-02 21:42:18,68.0531,39.5131,20.82,91,100,15.01,light snow
4,Lebu,CL,2022-02-02 21:41:11,-37.6167,-73.65,63.72,79,45,11.01,scattered clouds
5,Abhar,IR,2022-02-02 21:42:19,36.1468,49.218,30.16,67,6,3.13,clear sky
6,Faya,SA,2022-02-02 21:42:19,18.3851,42.4509,57.31,68,11,1.05,few clouds
7,Cape Town,ZA,2022-02-02 21:37:51,-33.9258,18.4232,67.12,90,40,1.99,scattered clouds
8,Atuona,PF,2022-02-02 21:38:59,-9.8,-139.0333,77.59,77,92,15.05,light rain
9,Arraial Do Cabo,BR,2022-02-02 21:42:19,-22.9661,-42.0278,78.76,89,75,3.44,light rain
10,Waingapu,ID,2022-02-02 21:42:20,-9.6567,120.2641,78.26,81,19,9.08,light rain
11,Tasiilaq,GL,2022-02-02 21:42:20,65.6145,-37.6368,14.16,78,100,4.16,overcast clouds
12,Busselton,AU,2022-02-02 21:41:53,-33.65,115.3333,66.04,48,100,14.52,overcast clouds
13,Puerto Lleras,CO,2022-02-02 21:42:21,3.0223,-73.4044,94.23,26,48,5.77,scattered clouds
14,Vaini,TO,2022-02-02 21:39:17,-21.2,-175.2,86.16,70,20,8.05,few clouds
15,Ponta Do Sol,PT,2022-02-02 21:42:21,32.6667,-17.1,67.71,79,100,6.08,overcast clouds
16,Punta Arenas,CL,2022-02-02 21:42:21,-53.15,-70.9167,48.31,76,75,9.22,light rain
17,Puerto Ayora,EC,2022-02-02 21:42:22,-0.7393,-90.3518,82.36,89,37,5.01,scattered clouds
18,Geraldton,AU,2022-02-02 21:42:22,-28.7667,114.6,84.61,17,0,21.85,clear sky
19,Mataura,NZ,2022-02-02 21:42:22,-46.1927,168.8643,57.47,97,100,3.96,moderate rain
20,Hobart,AU,2022-02-02 21:39:05,-42.8794,147.3294,59.05,60,40,1.01,scattered clouds
21,Lermontovka,RU,2022-02-02 21:42:23,47.1453,134.3383,-14.4,100,86,2.17,overcast clouds
22,Pinhao,BR,2022-02-02 21:42:23,-25.6956,-51.6597,71.28,72,63,3.71,broken clouds
23,Norman Wells,CA,2022-02-02 21:42:24,65.282,-126.8329,-21.96,69,75,11.5,broken clouds
24,Chokurdakh,RU,2022-02-02 21:41:51,70.6333,147.9167,-19.59,97,100,6.93,overcast clouds
25,Chapais,CA,2022-02-02 21:42:24,49.7834,-74.8492,13.78,90,100,7.87,overcast clouds
26,New Norfolk,AU,2022-02-02 21:42:25,-42.7826,147.0587,58.71,59,68,1.01,broken clouds
27,Cacoal,BR,2022-02-02 21:42:25,-11.4386,-61.4472,77.88,91,51,4.23,broken clouds
28,Nyimba,ZM,2022-02-02 21:42:26,-14.5566,30.8149,68.31,97,7,4.07,clear sky
29,Hasaki,JP,2022-02-02 21:42:26,35.7333,140.8333,25.2,50,36,10.02,scattered clouds
30,Clyde River,CA,2022-02-02 21:37:42,70.4692,-68.5914,-16.37,76,100,8.05,light snow
31,Barrow,US,2022-02-02 21:38:49,71.2906,-156.7887,-20.18,69,0,4.61,clear sky
32,Beyneu,KZ,2022-02-02 21:42:27,45.3167,55.2,33.06,81,6,14.03,clear sky
33,Avarua,CK,2022-02-02 21:42:27,-21.2078,-159.775,82.45,83,75,18.41,broken clouds
34,Rikitea,PF,2022-02-02 21:42:28,-23.1203,-134.9692,78.46,73,100,7.78,overcast clouds
35,Saint-Leu,RE,2022-02-02 21:38:54,-21.15,55.2833,79.66,87,100,29.21,moderate rain
36,Havre-Saint-Pierre,CA,2022-02-02 21:39:33,50.2334,-63.5986,26.6,86,100,12.66,overcast clouds
37,Dikson,RU,2022-02-02 21:42:28,73.5069,80.5464,-7.8,98,94,9.89,overcast clouds
38,Plettenberg Bay,ZA,2022-02-02 21:42:29,-34.0527,23.3716,69.55,91,100,4.9,overcast clouds
39,Bethel,US,2022-02-02 21:37:34,41.3712,-73.414,43.63,100,100,1.14,overcast clouds
40,Olpad,IN,2022-02-02 21:42:29,21.3333,72.75,69.4,71,4,6.02,clear sky
41,Kholtoson,RU,2022-02-02 21:42:30,50.2981,103.3097,-6.3,92,88,4.0,overcast clouds
42,Quatre Cocos,MU,2022-02-02 21:42:30,-20.2078,57.7625,79.09,89,100,32.64,moderate rain
43,East London,ZA,2022-02-02 21:39:55,-33.0153,27.9116,74.89,94,59,11.56,light rain
44,Kankan,GN,2022-02-02 21:42:31,10.3854,-9.3057,75.38,10,93,4.72,overcast clouds
45,Puerto Madryn,AR,2022-02-02 21:40:50,-42.7692,-65.0385,84.85,24,60,18.21,broken clouds
46,Curuca,BR,2022-02-02 21:42:31,-0.7289,-47.8481,75.22,95,91,5.08,overcast clouds
47,Hithadhoo,MV,2022-02-02 21:41:53,-0.6,73.0833,81.75,70,57,5.53,broken clouds
48,Thompson,CA,2022-02-02 21:42:32,55.7435,-97.8558,-9.24,54,20,14.97,few clouds
49,Yellowknife,CA,2022-02-02 21:38:41,62.456,-114.3525,-21.71,75,20,3.44,few clouds
50,Nizwa,OM,2022-02-02 21:43:32,22.9333,57.5333,66.79,54,2,5.5,clear sky
51,Yerbogachen,RU,2022-02-02 21:38:50,61.2767,108.0108,-5.03,99,98,3.58,overcast clouds
52,Jamestown,US,2022-02-02 21:43:33,42.097,-79.2353,41.09,40,100,14.97,light rain
53,Laguna,US,2022-02-02 21:43:33,38.421,-121.4238,61.47,28,0,11.99,clear sky
54,Sitka,US,2022-02-02 21:42:43,57.0531,-135.33,37.29,93,100,5.75,mist
55,Ushuaia,AR,2022-02-02 21:39:17,-54.8,-68.3,46.06,57,75,20.71,broken clouds
56,Luderitz,NA,2022-02-02 21:43:33,-26.6481,15.1594,68.27,78,68,1.77,broken clouds
57,Zhezkazgan,KZ,2022-02-02 21:43:11,47.8043,67.7144,1.71,90,11,5.97,few clouds
58,Bredasdorp,ZA,2022-02-02 21:43:34,-34.5322,20.0403,69.12,73,47,8.05,scattered clouds
59,Khatanga,RU,2022-02-02 21:39:08,71.9667,102.5,-36.9,98,47,1.25,scattered clouds
60,Albany,US,2022-02-02 21:43:34,42.6001,-73.9662,42.75,74,82,7.52,broken clouds
61,Nome,US,2022-02-02 21:43:35,64.5011,-165.4064,10.47,57,0,35.68,clear sky
62,Port Elizabeth,ZA,2022-02-02 21:43:35,-33.918,25.5701,72.1,100,75,13.8,broken clouds
63,Slapanice,CZ,2022-02-02 21:43:35,49.1686,16.7273,39.2,72,40,14.0,scattered clouds
64,Salalah,OM,2022-02-02 21:43:36,17.0151,54.0924,71.69,35,0,3.44,clear sky
65,Olinda,BR,2022-02-02 21:43:36,-8.0089,-34.8553,83.93,70,20,10.36,few clouds
66,Bluff,NZ,2022-02-02 21:42:50,-46.6,168.3333,57.79,66,100,16.69,overcast clouds
67,Saint-Philippe,RE,2022-02-02 21:39:03,-21.3585,55.7679,80.19,94,100,34.09,heavy intensity rain
68,Palas,ID,2022-02-02 21:43:37,-5.6519,105.6801,74.34,93,85,4.74,overcast clouds
69,Georgetown,MY,2022-02-02 21:40:28,5.4112,100.3354,80.53,90,20,0.0,few clouds
70,Cap Malheureux,MU,2022-02-02 21:43:37,-19.9842,57.6142,79.47,89,100,21.0,overcast clouds
71,Hilo,US,2022-02-02 21:42:31,19.7297,-155.09,78.12,69,40,6.91,scattered clouds
72,Vao,NC,2022-02-02 21:43:37,-22.6667,167.4833,77.74,77,97,14.54,overcast clouds
73,Airai,TL,2022-02-02 21:43:38,-8.9266,125.4092,60.66,89,100,2.35,moderate rain
74,San Ramon,US,2022-02-02 21:43:38,37.7799,-121.978,62.76,26,0,3.0,clear sky
75,Zlobin,HR,2022-02-02 21:43:38,45.2924,14.6541,40.3,43,0,6.91,clear sky
76,Katsuura,JP,2022-02-02 21:42:05,35.1333,140.3,39.18,51,30,9.46,scattered clouds
77,Conceicao Do Araguaia,BR,2022-02-02 21:43:39,-8.2578,-49.2647,75.38,90,19,4.47,few clouds
78,Half Moon Bay,US,2022-02-02 21:43:39,37.4636,-122.4286,64.45,30,0,4.0,clear sky
79,Banda Aceh,ID,2022-02-02 21:43:39,5.5577,95.3222,76.89,86,39,6.06,scattered clouds
80,Sao Filipe,CV,2022-02-02 21:38:53,14.8961,-24.4956,75.78,65,3,17.96,clear sky
81,Yarada,IN,2022-02-02 21:43:40,17.65,83.2667,70.12,100,20,2.3,mist
82,Hermanus,ZA,2022-02-02 21:43:40,-34.4187,19.2345,66.9,87,5,11.12,clear sky
83,Xucheng,CN,2022-02-02 21:43:41,20.35,110.1288,54.3,88,100,10.31,moderate rain
84,Pirgos,GR,2022-02-02 21:43:41,35.1167,25.7178,54.63,73,93,17.07,overcast clouds
85,Issoire,FR,2022-02-02 21:43:41,45.55,3.25,42.06,92,44,2.8,scattered clouds
86,Dubovskoye,RU,2022-02-02 21:43:42,47.4092,42.7575,34.2,91,100,10.02,snow
87,Churapcha,RU,2022-02-02 21:43:42,62.0025,132.4325,-41.4,100,79,1.5,broken clouds
88,Pirapozinho,BR,2022-02-02 21:43:42,-22.2753,-51.5,72.88,94,75,8.05,broken clouds
89,Ribeira Grande,PT,2022-02-02 21:43:42,38.5167,-28.7,61.2,72,40,13.8,scattered clouds
90,Burnie,AU,2022-02-02 21:43:43,-41.0667,145.9167,61.92,70,18,11.88,few clouds
91,Kamakwie,SL,2022-02-02 21:43:43,9.5,-12.2333,77.45,35,9,5.55,clear sky
92,Deputatskiy,RU,2022-02-02 21:43:43,69.3,139.9,-24.23,93,23,6.13,few clouds
93,Mar Del Plata,AR,2022-02-02 21:39:11,-38.0023,-57.5575,84.22,51,0,3.0,clear sky
94,Leo,BF,2022-02-02 21:44:44,11.1,-2.1,70.25,8,6,8.63,clear sky
95,Leningradskiy,RU,2022-02-02 21:44:04,69.3833,178.4167,-14.39,95,30,9.86,scattered clouds
96,Sungairaya,ID,2022-02-02 21:44:44,0.7,108.9,75.63,92,98,6.35,overcast clouds
97,Qaanaaq,GL,2022-02-02 21:42:49,77.484,-69.3632,-14.91,81,100,6.98,overcast clouds
98,Chuy,UY,2022-02-02 21:44:45,-33.6971,-53.4616,74.48,74,0,13.22,clear sky
99,Matara,LK,2022-02-02 21:44:45,5.9485,80.5353,70.86,89,2,7.4,clear sky
100,Rawson,AR,2022-02-02 21:44:45,-43.3002,-65.1023,75.29,38,100,10.8,overcast clouds
101,Ust-Kan,RU,2022-02-02 21:44:45,50.9276,84.761,-4.95,92,27,3.29,scattered clouds
102,Vyritsa,RU,2022-02-02 21:44:46,59.4078,30.3481,22.51,98,99,1.14,light snow
103,Porto Santo,PT,2022-02-02 21:42:45,33.072,-16.3415,66.31,94,40,9.22,scattered clouds
104,Lamar,US,2022-02-02 21:44:46,33.6668,-95.5836,38.86,93,100,12.66,overcast clouds
105,Port Alfred,ZA,2022-02-02 21:42:25,-33.5906,26.891,73.98,95,100,7.94,moderate rain
106,Rio Gallegos,AR,2022-02-02 21:44:46,-51.6226,-69.2181,64.45,52,75,20.71,broken clouds
107,Berbera,SO,2022-02-02 21:44:47,10.4396,45.0143,76.05,78,100,7.47,overcast clouds
108,Hualmay,PE,2022-02-02 21:44:47,-11.0964,-77.6139,74.75,70,4,13.62,clear sky
109,Labuhan,ID,2022-02-02 21:41:10,-6.8844,112.2051,77.63,86,100,5.12,overcast clouds
110,Kaitangata,NZ,2022-02-02 21:44:47,-46.2817,169.8464,54.36,95,100,4.99,moderate rain
111,Butaritari,KI,2022-02-02 21:42:51,3.0707,172.7902,81.73,79,29,17.83,light rain
112,Florianopolis,BR,2022-02-02 21:43:54,-27.6146,-48.5012,79.63,74,40,1.99,scattered clouds
113,Mount Gambier,AU,2022-02-02 21:42:42,-37.8333,140.7667,57.11,67,100,14.97,overcast clouds
114,Uitenhage,ZA,2022-02-02 21:44:48,-33.7576,25.3971,71.42,91,100,7.0,light rain
115,Victoria,HK,2022-02-02 21:44:48,22.2855,114.1577,60.94,93,100,1.01,overcast clouds
116,Karpathos,GR,2022-02-02 21:44:49,35.507,27.2132,55.36,82,100,20.71,overcast clouds
117,Mahebourg,MU,2022-02-02 21:42:30,-20.4081,57.7,79.25,100,75,33.38,shower rain
118,Poum,NC,2022-02-02 21:44:49,-20.2333,164.0167,79.95,76,0,6.82,clear sky
119,Kaduna,NG,2022-02-02 21:44:49,10.5222,7.4383,66.24,16,31,6.78,scattered clouds
120,Lompoc,US,2022-02-02 21:44:50,34.6391,-120.4579,66.52,19,0,14.97,clear sky
121,Carnarvon,AU,2022-02-02 21:44:50,-24.8667,113.6333,77.07,88,75,10.36,broken clouds
122,Kandrian,PG,2022-02-02 21:44:50,-6.2167,149.55,78.39,84,100,16.6,overcast clouds
123,Placido De Castro,BR,2022-02-02 21:44:51,-10.3353,-67.1856,82.02,71,75,3.91,broken clouds
124,Vanimo,PG,2022-02-02 21:44:51,-2.6741,141.3028,78.21,86,100,3.96,light rain
125,Sawtell,AU,2022-02-02 21:42:28,-30.3833,153.1,73.18,96,75,12.66,broken clouds
126,Melfort,CA,2022-02-02 21:44:51,52.8667,-104.6177,-19.44,63,6,9.22,clear sky
127,Jumla,NP,2022-02-02 21:44:52,29.2747,82.1838,36.41,92,87,4.32,overcast clouds
128,Belawan,ID,2022-02-02 21:44:52,3.7755,98.6832,75.49,92,100,3.51,overcast clouds
129,Codrington,AU,2022-02-02 21:44:52,-38.2667,141.9667,59.04,65,86,13.62,overcast clouds
130,Kodiak,US,2022-02-02 21:42:22,57.79,-152.4072,36.91,87,100,0.0,overcast clouds
131,Pangnirtung,CA,2022-02-02 21:40:30,66.1451,-65.7125,6.8,78,100,25.32,light snow
132,Haines Junction,CA,2022-02-02 21:42:48,60.7522,-137.5108,-0.45,60,100,5.75,overcast clouds
133,Mareeba,AU,2022-02-02 21:44:53,-17.0,145.4333,78.48,97,100,5.37,overcast clouds
134,Faanui,PF,2022-02-02 21:43:02,-16.4833,-151.75,81.01,73,20,20.0,few clouds
135,Santa Barbara,US,2022-02-02 21:44:53,34.7333,-120.0343,59.72,24,0,6.91,clear sky
136,Atikokan,CA,2022-02-02 21:44:54,48.7555,-91.6216,-4.99,86,100,9.1,overcast clouds
137,Punta,PH,2022-02-02 21:44:54,8.9897,125.34,73.71,84,100,4.92,overcast clouds
138,Cayenne,GF,2022-02-02 21:40:39,4.9333,-52.3333,80.1,84,75,5.99,light rain
139,Labuan,MY,2022-02-02 21:44:55,5.2767,115.2417,77.36,94,20,0.0,few clouds
140,San Vicente,AR,2022-02-02 21:44:55,-26.6167,-54.1333,85.53,37,76,5.37,broken clouds
141,Santa Cruz,BO,2022-02-02 21:41:55,-17.8,-63.1667,90.86,55,40,11.5,scattered clouds
142,Bambanglipuro,ID,2022-02-02 21:44:56,-7.95,110.2833,60.6,85,100,4.85,overcast clouds
143,Kailua,US,2022-02-02 21:45:56,21.4022,-157.7394,81.14,66,8,4.0,clear sky
144,Luanda,AO,2022-02-02 21:42:13,-8.8368,13.2343,75.2,88,40,4.61,scattered clouds
145,Estrela,BR,2022-02-02 21:45:57,-28.0611,-50.9383,75.07,54,67,2.39,broken clouds
146,Liku,ID,2022-02-02 21:45:57,-0.7275,119.8922,72.59,87,100,1.72,overcast clouds
147,Katherine,AU,2022-02-02 21:45:58,-14.4667,132.2667,77.32,94,74,0.0,broken clouds
148,Micheweni,TZ,2022-02-02 21:45:58,-4.9667,39.8333,80.13,81,100,9.55,overcast clouds
149,Tuatapere,NZ,2022-02-02 21:45:59,-46.1333,167.6833,57.81,85,100,6.87,overcast clouds
150,Minab,IR,2022-02-02 21:45:59,27.1467,57.0801,63.9,38,0,9.37,clear sky
151,Karratha,AU,2022-02-02 21:45:59,-20.7377,116.8463,81.25,73,100,6.24,overcast clouds
152,Provideniya,RU,2022-02-02 21:41:34,64.3833,-173.3,3.47,69,18,22.62,few clouds
153,Giovinazzo,IT,2022-02-02 21:46:00,41.1864,16.6674,47.82,66,0,5.99,clear sky
154,Shimizu,JP,2022-02-02 21:46:00,43.0061,142.8847,14.76,86,52,7.07,broken clouds
155,Carutapera,BR,2022-02-02 21:46:01,-1.195,-46.02,76.12,90,100,8.28,overcast clouds
156,Arman,RU,2022-02-02 21:46:01,59.7,150.1667,10.71,82,100,9.86,overcast clouds
157,Iqaluit,CA,2022-02-02 21:42:32,63.7506,-68.5145,8.33,78,100,11.01,light snow
158,Sun Valley,US,2022-02-02 21:46:01,39.5963,-119.776,39.78,36,0,5.01,clear sky
159,Emerald,AU,2022-02-02 21:46:02,-23.5333,148.1667,75.34,100,75,10.36,light rain
160,Nemuro,JP,2022-02-02 21:46:02,43.3236,145.575,22.8,72,54,8.23,broken clouds
161,Maniitsoq,GL,2022-02-02 21:43:06,65.4167,-52.9,3.7,74,100,17.96,overcast clouds
162,Marsaxlokk,MT,2022-02-02 21:46:03,35.8419,14.5431,56.08,87,0,12.66,clear sky
163,Belyy Yar,RU,2022-02-02 21:46:03,53.6039,91.3903,-20.31,76,75,4.47,mist
164,Sochaczew,PL,2022-02-02 21:46:04,52.2294,20.2384,34.03,84,99,13.58,overcast clouds
165,Bratsk,RU,2022-02-02 21:46:05,56.1325,101.6142,-10.71,100,77,1.59,broken clouds
166,Marsa Matruh,EG,2022-02-02 21:46:05,31.3525,27.2453,53.8,62,40,5.75,scattered clouds
167,Pevek,RU,2022-02-02 21:46:05,69.7008,170.3133,-8.43,76,30,4.92,scattered clouds
168,Vila Franca Do Campo,PT,2022-02-02 21:46:06,37.7167,-25.4333,58.19,79,22,8.84,few clouds
169,Sungaipenuh,ID,2022-02-02 21:46:06,-2.0833,101.3833,64.72,95,95,3.38,light rain
170,Port Shepstone,ZA,2022-02-02 21:46:06,-30.7414,30.455,77.34,91,99,16.71,overcast clouds
171,Lahan,NP,2022-02-02 21:46:07,26.7296,86.4951,57.85,59,10,4.81,clear sky
172,Lagoa,PT,2022-02-02 21:42:59,39.05,-27.9833,58.26,73,4,7.4,clear sky
173,Marsh Harbour,BS,2022-02-02 21:46:08,26.5412,-77.0636,71.89,60,9,17.09,clear sky
174,High Level,CA,2022-02-02 21:46:08,58.5169,-117.136,-11.09,77,40,6.91,scattered clouds
175,Nara,JP,2022-02-02 21:46:08,34.6851,135.8049,39.96,62,96,3.78,overcast clouds
176,Goregaon,IN,2022-02-02 21:46:09,18.1667,73.3,64.45,71,6,2.37,clear sky
177,Truro,GB,2022-02-02 21:46:09,50.2653,-5.0544,47.48,81,100,8.05,overcast clouds
178,Torbay,CA,2022-02-02 21:43:45,47.6666,-52.7314,26.49,84,40,4.61,scattered clouds
179,Gunupur,IN,2022-02-02 21:46:10,19.0833,83.8167,64.92,95,7,0.74,clear sky
180,Berlevag,NO,2022-02-02 21:46:04,70.8578,29.0864,19.2,93,75,8.05,snow
181,Djibo,BF,2022-02-02 21:46:10,14.1022,-1.6306,71.62,12,4,8.08,clear sky
182,Angoche,MZ,2022-02-02 21:46:10,-16.2325,39.9086,76.21,85,31,1.9,scattered clouds
183,Tromso,NO,2022-02-02 21:46:11,69.6496,18.957,12.22,79,0,5.75,clear sky
184,Dayong,CN,2022-02-02 21:46:11,25.0209,118.2898,53.28,97,100,2.86,moderate rain
185,Acapulco,MX,2022-02-02 21:44:02,16.8634,-99.8901,84.02,61,0,4.61,clear sky
186,Slave Lake,CA,2022-02-02 21:45:17,55.2834,-114.769,1.38,55,0,17.27,clear sky
187,Komsomolskiy,UZ,2022-02-02 21:46:12,40.4272,71.7189,39.92,81,75,4.61,broken clouds
188,Laranjeiras Do Sul,BR,2022-02-02 21:46:12,-25.4078,-52.4161,74.68,67,57,2.77,broken clouds
189,Maceio,BR,2022-02-02 21:46:04,-9.6658,-35.7353,83.64,69,20,11.5,few clouds
190,Yar-Sale,RU,2022-02-02 21:46:13,66.8333,70.8333,-1.12,98,100,13.2,light snow
191,Remuna,IN,2022-02-02 21:47:13,21.5261,86.8722,65.59,80,0,5.95,clear sky
192,Schwanewede,DE,2022-02-02 21:47:13,53.2333,8.6,38.01,94,100,1.01,overcast clouds
193,Fengkou,CN,2022-02-02 21:47:14,30.0833,113.2667,35.98,85,99,3.44,overcast clouds
194,Muroto,JP,2022-02-02 21:47:14,33.2833,134.15,41.04,65,99,8.72,light rain
195,Kuytun,RU,2022-02-02 21:47:15,54.3419,101.5036,-18.6,100,95,1.21,overcast clouds
196,Kavaratti,IN,2022-02-02 21:42:51,10.5669,72.642,79.52,72,7,10.6,clear sky
197,Tual,ID,2022-02-02 21:47:15,-5.6667,132.75,82.87,73,100,8.5,overcast clouds
198,Souillac,MU,2022-02-02 21:46:17,-20.5167,57.5167,79.36,100,75,33.38,shower rain
199,Fortuna,US,2022-02-02 21:43:09,40.5982,-124.1573,58.42,69,0,8.01,clear sky
200,Kapaa,US,2022-02-02 21:46:23,22.0752,-159.319,81.12,65,0,1.99,clear sky
201,Vanavara,RU,2022-02-02 21:47:16,60.34,102.2797,-10.21,100,94,3.06,overcast clouds
202,Caravelas,BR,2022-02-02 21:47:16,-17.7125,-39.2481,78.42,84,100,5.35,overcast clouds
203,Mizque,BO,2022-02-02 21:47:16,-17.941,-65.3402,70.56,64,81,6.4,broken clouds
204,Ponta Delgada,PT,2022-02-02 21:47:17,37.7333,-25.6667,58.5,77,20,8.05,few clouds
205,Znamenskoye,RU,2022-02-02 21:47:17,57.1281,73.8282,17.44,89,100,8.63,overcast clouds
206,Port Moresby,PG,2022-02-02 21:47:17,-9.4431,147.1797,72.82,94,75,11.5,broken clouds
207,Cherskiy,RU,2022-02-02 21:47:18,68.75,161.3,-14.87,65,62,0.54,broken clouds
208,Luang Prabang,LA,2022-02-02 21:47:18,19.8856,102.1347,62.62,98,6,1.1,clear sky
209,La Maddalena,IT,2022-02-02 21:47:18,41.2142,9.4083,53.65,78,1,4.97,clear sky
210,Barentin,FR,2022-02-02 21:47:19,49.5453,0.9552,48.13,78,100,5.57,overcast clouds
211,Labytnangi,RU,2022-02-02 21:47:07,66.6572,66.4183,1.69,97,100,5.26,overcast clouds
212,Launceston,AU,2022-02-02 21:47:19,-41.45,147.1667,60.44,61,40,1.99,scattered clouds
213,Coquimbo,CL,2022-02-02 21:43:22,-29.9533,-71.3436,67.73,68,20,13.8,few clouds
214,Miles City,US,2022-02-02 21:47:20,46.4083,-105.8406,2.37,60,0,3.44,clear sky
215,Bayir,TR,2022-02-02 21:47:20,37.2687,28.2167,52.32,87,100,19.57,overcast clouds
216,Asau,RO,2022-02-02 21:47:20,46.4333,26.4,24.28,89,88,6.15,overcast clouds
217,Sioux Lookout,CA,2022-02-02 21:47:21,50.1001,-91.917,-9.02,64,75,12.66,broken clouds
218,Finschhafen,PG,2022-02-02 21:47:21,-6.6024,147.8681,80.58,79,100,12.28,overcast clouds
219,Bandarbeyla,SO,2022-02-02 21:44:14,9.4942,50.8122,74.71,73,16,16.69,few clouds
220,Tahoua,NE,2022-02-02 21:47:21,14.8888,5.2692,67.24,10,3,10.85,clear sky
221,Klaeng,TH,2022-02-02 21:47:22,12.7797,101.6483,77.95,87,4,0.56,clear sky
222,Yulara,AU,2022-02-02 21:47:22,-25.2406,130.9889,66.04,59,100,12.66,overcast clouds
223,Aklavik,CA,2022-02-02 21:44:11,68.2191,-135.0107,-22.0,76,75,3.44,broken clouds
224,Kayasula,RU,2022-02-02 21:47:22,44.325,45.0,35.01,90,78,3.78,broken clouds
225,Walvis Bay,NA,2022-02-02 21:47:23,-22.9575,14.5053,69.1,74,2,9.22,clear sky
226,Venezuela,VE,2022-02-02 21:47:23,8.0,-66.0,90.57,38,79,13.42,broken clouds
227,Tuktoyaktuk,CA,2022-02-02 21:47:24,69.4541,-133.0374,-22.0,69,75,11.5,mist
228,Victor Harbor,AU,2022-02-02 21:47:24,-35.5667,138.6167,63.0,72,98,1.01,overcast clouds
229,Emet,TR,2022-02-02 21:47:24,39.343,29.2585,38.12,97,100,8.16,light rain
230,Coihaique,CL,2022-02-02 21:43:02,-45.5752,-72.0662,66.15,55,75,8.05,broken clouds
231,Kidal,ML,2022-02-02 21:47:25,18.4411,1.4078,66.09,11,0,10.63,clear sky
232,Cockburn Town,TC,2022-02-02 21:47:24,21.4612,-71.1419,71.56,88,75,13.8,broken clouds
233,Mayor Pablo Lagerenza,PY,2022-02-02 21:47:25,-19.9309,-60.7718,97.74,27,53,6.98,broken clouds
234,Itoman,JP,2022-02-02 21:47:25,26.1247,127.6694,71.62,85,75,20.71,broken clouds
235,Port Blair,IN,2022-02-02 21:43:37,11.6667,92.75,76.71,70,83,5.82,broken clouds
236,Meadow Lake,US,2022-02-02 21:45:03,34.8014,-106.5436,32.61,89,100,15.66,snow
237,Grand-Lahou,CI,2022-02-02 21:47:26,5.1367,-5.0242,79.92,84,54,9.06,broken clouds
238,Revyakino,RU,2022-02-02 21:48:26,54.3669,37.6589,9.55,96,100,4.38,light snow
239,Umm Kaddadah,SD,2022-02-02 21:45:13,13.6017,26.6876,69.3,20,12,6.33,few clouds
240,Naze,JP,2022-02-02 21:48:05,28.3667,129.4833,56.32,90,100,23.0,overcast clouds
241,Lazaro Cardenas,MX,2022-02-02 21:48:27,17.9583,-102.2,80.17,57,0,9.08,clear sky
242,Usinsk,RU,2022-02-02 21:48:27,65.9939,57.5281,15.37,96,100,8.32,light snow
243,Kavieng,PG,2022-02-02 21:44:05,-2.5744,150.7967,78.42,84,100,13.67,light rain
244,Tonj,SS,2022-02-02 21:48:28,7.2737,28.6822,78.87,21,95,4.7,overcast clouds
245,Lotofaga,WS,2022-02-02 21:48:28,-13.9764,-171.8578,79.79,76,100,22.77,light rain
246,Nikolskoye,RU,2022-02-02 21:47:44,59.7035,30.7861,22.89,98,99,1.1,overcast clouds
247,Longyearbyen,SJ,2022-02-02 21:48:28,78.2186,15.6401,17.44,67,79,12.66,broken clouds
248,Husavik,IS,2022-02-02 21:48:29,66.0449,-17.3389,22.91,91,99,5.86,overcast clouds
249,Narsaq,GL,2022-02-02 21:43:34,60.9167,-46.05,5.22,66,56,7.92,broken clouds
250,San Patricio,US,2022-02-02 21:43:34,28.017,-97.5169,80.58,70,94,14.38,overcast clouds
251,Kalmunai,LK,2022-02-02 21:48:29,7.4167,81.8167,74.89,74,84,3.18,broken clouds
252,Arlit,NE,2022-02-02 21:48:30,18.7369,7.3853,64.27,17,0,15.26,clear sky
253,Gunjur,GM,2022-02-02 21:48:30,13.2019,-16.7339,80.67,74,47,6.91,scattered clouds
254,Benguela,AO,2022-02-02 21:48:30,-12.5763,13.4055,74.43,73,28,2.57,scattered clouds
255,Saint-Denis,FR,2022-02-02 21:48:30,48.9167,2.3333,49.14,77,100,3.0,overcast clouds
256,Sakakah,SA,2022-02-02 21:48:31,29.9697,40.2064,53.17,40,22,11.12,few clouds
257,Klaksvik,FO,2022-02-02 21:48:31,62.2266,-6.589,41.92,77,100,13.27,overcast clouds
258,Saskylakh,RU,2022-02-02 21:44:06,71.9167,114.0833,-30.41,100,28,2.59,scattered clouds
259,Castro,BR,2022-02-02 21:46:32,-24.7911,-50.0119,66.94,90,32,5.3,scattered clouds
260,Muros,ES,2022-02-02 21:48:31,42.7762,-9.0603,55.24,83,100,7.81,overcast clouds
261,Talnakh,RU,2022-02-02 21:48:32,69.4865,88.3972,-6.12,99,93,6.29,overcast clouds
262,Eldorado,BR,2022-02-02 21:44:08,-23.7869,-54.2836,81.68,64,54,10.04,broken clouds
263,Tiszadada,HU,2022-02-02 21:48:32,48.0333,21.25,33.67,91,85,3.2,light snow
264,Almeirim,BR,2022-02-02 21:48:33,-1.5233,-52.5817,79.03,77,58,3.98,broken clouds
265,Fairbanks,US,2022-02-02 21:48:33,64.8378,-147.7164,-7.4,71,0,0.0,clear sky
266,Jinotega,NI,2022-02-02 21:48:33,13.0917,-86.0018,80.08,50,40,4.61,scattered clouds
267,Gisborne,NZ,2022-02-02 21:48:34,-38.6533,178.0042,77.95,57,100,5.99,overcast clouds
268,Ancud,CL,2022-02-02 21:48:34,-41.8697,-73.8203,70.23,76,96,7.07,overcast clouds
269,Huejuquilla El Alto,MX,2022-02-02 21:48:34,22.6,-103.8667,71.6,14,0,17.43,clear sky
270,Tabou,CI,2022-02-02 21:48:35,4.423,-7.3528,79.02,80,73,7.38,broken clouds
271,Broken Hill,AU,2022-02-02 21:48:35,-31.95,141.4333,58.71,55,0,17.27,clear sky
272,Padang,ID,2022-02-02 21:46:41,-0.9492,100.3543,76.91,86,78,3.6,broken clouds
273,Hovd,MN,2022-02-02 21:48:35,48.0056,91.6419,-4.9,98,96,0.22,overcast clouds
274,Prince Rupert,CA,2022-02-02 21:47:47,54.3161,-130.3201,42.49,100,100,5.75,light rain
275,Miyako,JP,2022-02-02 21:48:36,39.6367,141.9525,29.91,55,2,3.98,clear sky
276,Laibin,CN,2022-02-02 21:48:36,23.7,109.2667,41.45,83,95,9.55,overcast clouds
277,Cabo San Lucas,MX,2022-02-02 21:46:58,22.8909,-109.9124,78.62,61,16,3.0,few clouds
278,Ormara,PK,2022-02-02 21:48:37,25.2088,64.6357,66.81,34,0,34.36,clear sky
279,Amuntai,ID,2022-02-02 21:48:37,-2.4177,115.2494,72.72,96,86,0.85,overcast clouds
280,Ongandjera,NA,2022-02-02 21:48:37,-17.8833,15.0667,73.71,42,56,13.02,broken clouds
281,Iquique,CL,2022-02-02 21:46:11,-20.2208,-70.1431,71.64,75,17,9.17,few clouds
282,Mabaruma,GY,2022-02-02 21:49:38,8.2,-59.7833,75.6,85,14,5.91,few clouds
283,Praia,CV,2022-02-02 21:46:07,14.9215,-23.5087,72.14,78,3,20.71,clear sky
284,Risalpur,PK,2022-02-02 21:49:38,34.0619,71.9917,50.58,77,100,0.92,overcast clouds
285,Juneau,US,2022-02-02 21:45:02,58.3019,-134.4197,28.85,95,100,0.0,light snow
286,Manono,CD,2022-02-02 21:49:38,-7.3,27.4167,69.01,96,100,1.1,overcast clouds
287,Muravlenko,RU,2022-02-02 21:49:39,63.7898,74.523,11.82,95,100,11.72,snow
288,Nikopol,UA,2022-02-02 21:49:39,47.5712,34.3964,32.77,99,100,4.0,overcast clouds
289,Bardiyah,LY,2022-02-02 21:46:25,31.7561,25.0865,53.47,70,100,12.71,overcast clouds
290,Pisco,PE,2022-02-02 21:49:40,-13.7,-76.2167,78.85,57,0,20.71,clear sky
291,Kyren,RU,2022-02-02 21:49:40,51.6828,102.1408,0.3,85,71,1.34,broken clouds
292,Elizabeth City,US,2022-02-02 21:49:40,36.2946,-76.2511,54.0,81,60,4.92,broken clouds
293,Bubaque,GW,2022-02-02 21:49:40,11.2833,-15.8333,77.97,85,15,13.56,few clouds
294,Saint-Joseph,RE,2022-02-02 21:48:31,-21.3667,55.6167,79.18,92,100,32.99,heavy intensity rain
295,Abidjan,CI,2022-02-02 21:49:41,5.3094,-4.0197,80.56,94,18,4.61,few clouds
296,Vardo,NO,2022-02-02 21:49:41,70.3705,31.1107,28.38,86,75,14.97,broken clouds
297,Anadyr,RU,2022-02-02 21:49:42,64.75,177.4833,18.1,53,0,20.13,clear sky
298,Lorengau,PG,2022-02-02 21:49:42,-2.0226,147.2712,79.75,80,100,11.45,moderate rain
299,Joao Pinheiro,BR,2022-02-02 21:49:42,-17.7425,-46.1725,72.72,83,88,3.56,overcast clouds
300,Palembang,ID,2022-02-02 21:49:43,-2.9167,104.7458,77.09,94,20,0.0,few clouds
301,Khash,IR,2022-02-02 21:49:43,28.2211,61.2158,42.89,58,0,2.68,clear sky
302,Morden,CA,2022-02-02 21:49:43,49.1919,-98.1014,-5.42,54,6,13.8,clear sky
303,Barinas,VE,2022-02-02 21:49:44,8.6226,-70.2075,80.64,54,14,6.91,few clouds
304,Broome,US,2022-02-02 21:49:44,42.2506,-75.833,41.45,69,0,1.99,clear sky
305,Lodja,CD,2022-02-02 21:49:44,-3.4833,23.4333,69.24,99,100,1.32,light rain
306,Altamont,US,2022-02-02 21:49:45,42.2068,-121.7372,41.9,53,0,1.99,clear sky
307,Isangel,VU,2022-02-02 21:49:45,-19.55,169.2667,82.02,74,99,2.44,overcast clouds
308,Mandalgovi,MN,2022-02-02 21:49:45,45.7625,106.2708,-0.31,79,2,10.0,clear sky
309,Mogadouro,PT,2022-02-02 21:49:46,41.3403,-6.7119,39.78,74,62,1.79,broken clouds
310,Dumabato,PH,2022-02-02 21:49:46,16.3167,121.7,64.36,95,50,1.36,scattered clouds
311,Road Town,VG,2022-02-02 21:49:46,18.4167,-64.6167,80.64,74,40,8.05,scattered clouds
312,Pacific Grove,US,2022-02-02 21:49:47,36.6177,-121.9166,64.51,30,0,4.0,clear sky
313,Gondanglegi,ID,2022-02-02 21:49:47,-7.7479,112.0132,74.68,93,100,1.48,overcast clouds
314,Saint George,US,2022-02-02 21:47:40,37.1041,-113.5841,43.63,19,0,1.01,clear sky
315,Vestmanna,FO,2022-02-02 21:49:47,62.1564,-7.1664,40.12,87,75,12.66,broken clouds
316,Chumikan,RU,2022-02-02 21:48:21,54.7183,135.315,-12.48,86,78,12.86,broken clouds
317,San Cristobal,VE,2022-02-02 21:49:48,7.7669,-72.225,80.78,30,19,5.64,few clouds
318,Manassas,US,2022-02-02 21:47:59,38.751,-77.4753,49.21,64,0,10.36,clear sky
319,Kahului,US,2022-02-02 21:49:48,20.8947,-156.47,80.62,65,20,6.91,few clouds
320,Nova Odesa,UA,2022-02-02 21:49:48,47.3078,31.7851,32.07,95,100,0.18,overcast clouds
321,Shelburne,CA,2022-02-02 21:49:49,44.0787,-80.2041,32.56,94,100,10.27,overcast clouds
322,Nanortalik,GL,2022-02-02 21:49:49,60.1432,-45.2371,6.84,67,29,7.96,scattered clouds
323,Saint-Augustin,CA,2022-02-02 21:49:49,51.226,-58.6502,23.79,82,100,24.43,overcast clouds
324,Rocha,UY,2022-02-02 21:49:50,-34.4833,-54.3333,75.36,71,0,12.46,clear sky
325,Chapeco,BR,2022-02-02 21:49:50,-27.0964,-52.6183,89.35,35,40,9.22,scattered clouds
326,Birin,NP,2022-02-02 21:50:50,26.8865,88.0718,41.04,73,13,4.9,few clouds
327,Canaries,ES,2022-02-02 21:50:51,28.0,-15.5,62.56,52,0,20.71,clear sky
328,Vicuna,CL,2022-02-02 21:50:51,-30.0319,-70.7081,83.77,47,3,8.3,clear sky
329,Narasapur,IN,2022-02-02 21:50:52,16.45,81.6667,67.39,84,13,4.0,few clouds
330,Cidreira,BR,2022-02-02 21:50:52,-30.1811,-50.2056,75.97,84,0,17.74,clear sky
331,Ratzeburg,DE,2022-02-02 21:50:52,53.7,10.7667,38.21,85,40,1.01,scattered clouds
332,Bend,US,2022-02-02 21:50:53,44.0582,-121.3153,42.39,55,75,1.99,broken clouds
333,Norwich,GB,2022-02-02 21:50:53,52.6278,1.2983,48.15,91,100,8.05,overcast clouds
334,Siirt,TR,2022-02-02 21:50:53,37.9326,41.9403,34.92,70,100,4.79,overcast clouds
335,Hay River,CA,2022-02-02 21:50:54,60.8156,-115.7999,-13.02,70,20,2.3,few clouds
336,Bara,NG,2022-02-02 21:50:54,10.3744,10.7288,69.21,15,7,9.71,clear sky
337,Adiake,CI,2022-02-02 21:50:54,5.2863,-3.304,80.19,81,12,8.1,few clouds
338,Ossora,RU,2022-02-02 21:50:55,59.2353,163.0719,16.29,72,100,12.62,overcast clouds
339,Pangody,RU,2022-02-02 21:50:55,65.85,74.4859,-4.58,92,96,13.73,overcast clouds
340,Alice Springs,AU,2022-02-02 21:50:55,-23.7,133.8833,65.75,88,100,8.05,overcast clouds
341,Panukulan,PH,2022-02-02 21:50:56,14.9333,121.8144,76.51,84,99,14.52,overcast clouds
342,Asyut,EG,2022-02-02 21:50:56,27.181,31.1837,55.58,38,50,3.96,scattered clouds
343,Bumba,CD,2022-02-02 21:46:00,2.1833,22.4667,79.29,53,99,3.15,overcast clouds
344,Ilulissat,GL,2022-02-02 21:46:23,69.2167,-51.1,-0.38,65,20,29.93,few clouds
345,Kloulklubed,PW,2022-02-02 21:45:57,7.0419,134.2556,79.3,78,100,18.7,overcast clouds
346,Touros,BR,2022-02-02 21:48:43,-5.1989,-35.4608,83.3,72,39,12.84,scattered clouds
347,Oltu,TR,2022-02-02 21:50:57,40.5498,42.0013,20.95,88,100,8.46,overcast clouds
348,Saint Anthony,US,2022-02-02 21:50:57,45.0205,-93.218,7.9,53,0,5.01,clear sky
349,Siedlce,PL,2022-02-02 21:50:58,52.1677,22.2901,32.05,94,100,13.42,light snow
350,Champerico,GT,2022-02-02 21:50:58,14.3,-91.9167,91.94,59,1,11.39,clear sky
351,Adrar,MR,2022-02-02 21:46:39,20.5022,-10.0711,70.34,20,81,10.2,broken clouds
352,Mapiri,BO,2022-02-02 21:50:58,-15.25,-68.1667,76.21,83,75,0.43,broken clouds
353,Valencia,ES,2022-02-02 21:46:04,39.3333,-0.8333,54.66,48,0,5.95,clear sky
354,Victoria Point,AU,2022-02-02 21:50:59,-27.5833,153.3,81.25,91,93,1.99,overcast clouds
355,Lavrentiya,RU,2022-02-02 21:50:59,65.5833,-171.0,0.23,69,0,22.32,clear sky
356,Port Macquarie,AU,2022-02-02 21:48:16,-31.4333,152.9167,68.9,100,100,12.66,light rain
357,Tole,UA,2022-02-02 21:50:59,44.7167,33.8167,43.5,93,100,4.63,overcast clouds
358,Luganville,VU,2022-02-02 21:51:00,-15.5333,167.1667,83.77,75,61,1.95,broken clouds
359,Puerto Baquerizo Moreno,EC,2022-02-02 21:51:00,-0.9,-89.6,81.59,69,20,14.97,few clouds
360,Alta,NO,2022-02-02 21:51:00,69.9689,23.2717,-1.14,85,40,2.3,scattered clouds
361,The Pas,CA,2022-02-02 21:51:01,53.8251,-101.2541,-11.18,53,0,10.36,clear sky
362,Oistins,BB,2022-02-02 21:51:01,13.0667,-59.5333,80.69,69,40,13.8,scattered clouds
363,Dodge City,US,2022-02-02 21:46:09,37.7528,-100.0171,13.24,86,100,23.0,snow
364,Vestmannaeyjar,IS,2022-02-02 21:51:01,63.4427,-20.2734,31.32,72,100,10.22,overcast clouds
365,Kenai,US,2022-02-02 21:51:02,60.5544,-151.2583,21.02,82,100,8.05,overcast clouds
366,Kachiry,KZ,2022-02-02 21:51:02,53.0675,76.1036,2.97,97,100,5.97,overcast clouds
367,Meulaboh,ID,2022-02-02 21:51:03,4.1363,96.1285,76.08,85,71,3.15,broken clouds
368,Kutoarjo,ID,2022-02-02 21:51:03,-7.7169,109.9128,75.16,88,100,3.06,overcast clouds
369,Eureka,US,2022-02-02 21:51:04,40.8021,-124.1637,58.12,72,56,10.0,broken clouds
370,Oranjemund,NA,2022-02-02 21:46:42,-28.55,16.4333,67.89,86,100,5.55,overcast clouds
371,Barcelos,PT,2022-02-02 21:47:04,41.5388,-8.6151,54.91,78,93,4.54,overcast clouds
372,Salekhard,RU,2022-02-02 21:46:58,66.53,66.6019,1.94,97,100,6.06,overcast clouds
373,Bien Hoa,VN,2022-02-02 21:52:04,10.95,106.8167,75.18,79,59,5.1,broken clouds
374,Dingle,PH,2022-02-02 21:49:43,10.9995,122.6711,74.23,93,99,8.1,overcast clouds
375,Kieta,PG,2022-02-02 21:52:05,-6.2167,155.6333,82.11,77,100,8.12,overcast clouds
376,El Alto,PE,2022-02-02 21:52:05,-4.2714,-81.2147,80.26,64,14,22.06,few clouds
377,Baykit,RU,2022-02-02 21:50:07,61.67,96.37,-0.04,99,100,1.92,overcast clouds
378,Maumere,ID,2022-02-02 21:52:06,-8.6199,122.2111,78.55,82,66,1.12,broken clouds
379,Liverpool,GB,2022-02-02 21:52:06,53.4106,-2.9779,50.68,86,100,5.75,overcast clouds
380,Camacha,PT,2022-02-02 21:52:06,33.0833,-16.3333,63.54,94,40,9.22,scattered clouds
381,Zhanaozen,KZ,2022-02-02 21:52:07,43.3,52.8,39.31,77,60,13.82,broken clouds
382,Necochea,AR,2022-02-02 21:52:07,-38.5473,-58.7368,84.02,49,100,11.23,light rain
383,Sorland,NO,2022-02-02 21:52:07,67.667,12.6934,28.98,58,100,18.5,overcast clouds
384,Constitucion,CL,2022-02-02 21:52:08,-35.3333,-72.4167,64.42,73,31,8.59,scattered clouds
385,Montepuez,MZ,2022-02-02 21:52:08,-13.1256,38.9997,68.31,97,29,3.71,scattered clouds
386,Ixtapa,MX,2022-02-02 21:52:08,20.7,-105.2,76.23,70,1,5.01,clear sky
387,Kandava,LV,2022-02-02 21:52:09,57.0409,22.7747,19.87,95,90,4.34,overcast clouds
388,Sheffield,GB,2022-02-02 21:50:08,53.383,-1.4659,49.35,86,100,1.01,overcast clouds
389,Hambantota,LK,2022-02-02 21:49:16,6.1241,81.1185,71.94,100,20,0.0,few clouds
390,Tiksi,RU,2022-02-02 21:52:09,71.6872,128.8694,-5.22,97,100,6.58,overcast clouds
391,Eenhana,NA,2022-02-02 21:52:09,-17.4667,16.3333,72.19,34,44,4.92,scattered clouds
392,Comodoro Rivadavia,AR,2022-02-02 21:52:10,-45.8667,-67.5,84.06,21,0,12.66,clear sky
393,Ornskoldsvik,SE,2022-02-02 21:52:10,63.2909,18.7153,9.55,92,100,3.44,overcast clouds
394,Nouadhibou,MR,2022-02-02 21:52:11,20.931,-17.0347,71.58,56,1,17.27,sand
395,Labis,MY,2022-02-02 21:52:11,2.385,103.021,72.39,95,64,2.24,broken clouds
396,Saldanha,ZA,2022-02-02 21:52:12,-33.0117,17.9442,66.25,86,79,6.91,broken clouds
397,Bajram Curri,AL,2022-02-02 21:52:12,42.3554,20.0784,42.93,82,50,3.8,scattered clouds
398,Cristalina,BR,2022-02-02 21:52:13,-16.7686,-47.6136,65.95,89,97,2.24,light rain
399,Gat,IL,2022-02-02 21:52:13,31.61,34.7642,59.4,55,98,4.45,overcast clouds
400,Zeya,RU,2022-02-02 21:52:14,53.75,127.2667,-9.71,88,51,4.81,broken clouds
401,Guerrero Negro,MX,2022-02-02 21:48:04,27.9769,-114.0611,64.27,49,3,13.02,clear sky
402,Riverton,US,2022-02-02 21:52:14,40.5219,-111.9391,31.17,63,0,7.0,clear sky
403,Iquitos,PE,2022-02-02 21:52:14,-3.7481,-73.2472,84.24,70,75,6.91,broken clouds
404,Tigil,RU,2022-02-02 21:52:15,57.8,158.6667,7.93,91,96,2.06,overcast clouds
405,Kamaishi,JP,2022-02-02 21:52:15,39.2667,141.8833,30.67,62,10,7.76,clear sky
406,Flinders,AU,2022-02-02 21:52:16,-34.5833,150.8552,67.21,73,80,15.01,broken clouds
407,Sumbe,AO,2022-02-02 21:52:16,-11.2061,13.8437,74.55,80,54,6.38,broken clouds
408,Hami,CN,2022-02-02 21:51:32,42.8,93.45,21.58,35,2,1.88,clear sky
409,Bilibino,RU,2022-02-02 21:52:16,68.0546,166.4372,-7.58,63,61,5.14,broken clouds
410,Syosset,US,2022-02-02 21:52:17,40.8262,-73.5021,44.08,76,40,8.05,scattered clouds
411,Kamenka,RU,2022-02-02 21:52:17,51.3223,42.7678,31.75,99,100,6.17,light snow
412,Hofn,IS,2022-02-02 21:51:25,64.2539,-15.2082,29.59,56,100,4.72,overcast clouds
413,Bonnyville,CA,2022-02-02 21:52:18,54.2668,-110.735,-10.57,87,53,10.29,broken clouds
414,Dagumba-An,PH,2022-02-02 21:52:18,8.1531,124.5908,67.68,81,99,3.0,overcast clouds
415,Bacolod,PH,2022-02-02 21:52:18,10.6667,122.95,75.22,87,97,9.15,overcast clouds
416,Zheleznodorozhnyy,RU,2022-02-02 21:52:19,55.7503,38.0042,23.41,98,100,3.74,light snow
417,Korla,CN,2022-02-02 21:52:19,41.7597,86.1469,23.05,57,11,6.98,few clouds
418,Tongliao,CN,2022-02-02 21:52:20,43.6125,122.2653,-6.68,88,2,6.42,clear sky
419,Falun,SE,2022-02-02 21:52:20,60.6036,15.626,23.95,88,98,1.16,overcast clouds
420,Arkhara,RU,2022-02-02 21:53:21,49.4212,130.0842,-28.64,100,87,2.77,overcast clouds
421,Rexburg,US,2022-02-02 21:52:29,43.826,-111.7897,13.51,77,75,9.22,mist
422,Mackay,AU,2022-02-02 21:53:21,-21.15,149.2,83.68,83,40,4.61,scattered clouds
423,Nivala,FI,2022-02-02 21:53:22,63.9167,24.9667,-1.17,99,86,1.92,overcast clouds
424,Hamilton,US,2022-02-02 21:53:22,39.1834,-84.5333,44.98,94,100,1.01,light rain
425,Bulz,RO,2022-02-02 21:53:23,46.9167,22.6833,25.27,98,99,3.22,light snow
426,Awjilah,LY,2022-02-02 21:53:23,29.1081,21.2869,53.17,57,61,16.49,broken clouds
427,Quesnel,CA,2022-02-02 21:53:23,52.9999,-122.5029,10.9,85,100,10.36,overcast clouds
428,Batagay,RU,2022-02-02 21:53:24,67.6333,134.6333,-33.52,99,76,3.36,broken clouds
429,Kitgum,UG,2022-02-02 21:53:24,3.2783,32.8867,77.23,38,100,3.44,overcast clouds
430,Warri,NG,2022-02-02 21:53:24,5.5167,5.75,78.93,74,4,5.46,clear sky
431,Bambous Virieux,MU,2022-02-02 21:53:25,-20.3428,57.7575,79.21,100,75,33.38,shower rain
432,Kulhudhuffushi,MV,2022-02-02 21:53:25,6.6221,73.07,79.99,75,37,8.21,scattered clouds
433,Mae Ramat,TH,2022-02-02 21:53:25,16.984,98.5166,59.99,68,6,1.57,clear sky
434,Atocha,BO,2022-02-02 21:53:26,-20.9333,-66.2333,55.92,53,39,6.02,scattered clouds
435,Christchurch,NZ,2022-02-02 21:49:54,-43.5333,172.6333,82.99,56,100,1.99,light rain
436,Teykovo,RU,2022-02-02 21:53:26,56.858,40.5369,20.8,96,100,5.03,overcast clouds
437,Vikhorevka,RU,2022-02-02 21:53:27,56.1201,101.1636,-9.81,100,74,1.14,broken clouds
438,Sao Felix Do Xingu,BR,2022-02-02 21:48:45,-6.6447,-51.995,74.39,94,68,3.0,light rain
439,Sabzevar,IR,2022-02-02 21:53:27,36.2126,57.6819,39.42,53,0,2.1,clear sky
440,Iwanai,JP,2022-02-02 21:53:28,42.9744,140.5089,24.15,89,100,12.68,light snow
441,Margate,GB,2022-02-02 21:50:28,51.3813,1.3862,47.91,83,100,3.0,overcast clouds
442,Ingham,US,2022-02-02 21:53:28,42.6,-84.3833,28.89,93,100,10.36,light snow
443,Ipixuna,BR,2022-02-02 21:53:28,-1.7625,-48.8043,82.35,96,86,4.52,overcast clouds
444,Blind River,CA,2022-02-02 21:49:20,46.1834,-82.9582,21.31,73,100,10.96,overcast clouds
445,Paranaiba,BR,2022-02-02 21:53:29,-19.6772,-51.1908,75.6,86,72,4.83,moderate rain
446,Esperance,AU,2022-02-02 21:53:29,-33.8667,121.9,57.04,72,2,12.15,clear sky
447,Navahrudak,BY,2022-02-02 21:53:29,53.6,25.8333,19.81,98,93,8.41,overcast clouds
448,Arraias,BR,2022-02-02 21:53:30,-12.9288,-46.9437,70.11,90,65,4.09,broken clouds
449,Valparaiso,CL,2022-02-02 21:49:02,-33.0393,-71.6273,75.43,58,0,8.05,clear sky
450,Brae,GB,2022-02-02 21:53:30,60.3964,-1.353,46.31,90,100,9.08,overcast clouds
451,Newport,GB,2022-02-02 21:49:49,51.5877,-2.9984,49.44,87,100,7.67,overcast clouds
452,Muzhi,RU,2022-02-02 21:49:24,65.3667,64.6667,-5.64,98,100,3.58,overcast clouds
453,Maningrida,AU,2022-02-02 21:53:30,-12.0667,134.2667,78.15,87,99,9.91,overcast clouds
454,Kaeo,NZ,2022-02-02 21:53:31,-35.1,173.7833,74.32,85,100,11.61,overcast clouds
455,Herat,AF,2022-02-02 21:53:31,34.5,62.0,35.98,59,0,2.82,clear sky
456,Urumqi,CN,2022-02-02 21:53:31,43.801,87.6005,-1.25,85,75,0.0,mist
457,Casablanca,MA,2022-02-02 21:50:36,33.5928,-7.6192,60.33,67,96,4.0,overcast clouds
458,Robertsport,LR,2022-02-02 21:49:38,6.7533,-11.3686,80.31,83,11,9.91,few clouds
459,Hibbing,US,2022-02-02 21:53:32,47.4272,-92.9377,-0.8,19,100,8.99,overcast clouds
460,Calbuco,CL,2022-02-02 21:53:32,-41.768,-73.1273,69.01,76,86,8.25,overcast clouds
461,Vilhena,BR,2022-02-02 21:48:38,-12.7406,-60.1458,79.02,78,40,5.75,scattered clouds
462,Nicoya,CR,2022-02-02 21:53:33,10.1483,-85.452,89.15,43,1,3.42,clear sky
463,Charters Towers,AU,2022-02-02 21:53:33,-20.1,146.2667,80.33,79,100,10.04,overcast clouds
464,Port Lincoln,AU,2022-02-02 21:53:33,-34.7333,135.8667,63.91,72,19,15.55,few clouds
465,Wilmington,US,2022-02-02 21:50:31,34.2257,-77.9447,61.95,66,100,9.22,overcast clouds
466,Rosendal,NO,2022-02-02 21:53:34,59.9867,6.0135,36.52,92,100,5.77,overcast clouds
467,Kerema,PG,2022-02-02 21:53:34,-7.9631,145.7785,78.89,67,100,3.29,overcast clouds
468,The Valley,AI,2022-02-02 21:53:34,18.217,-63.0578,82.26,69,75,11.5,broken clouds
469,Khani,GE,2022-02-02 21:54:35,41.9563,42.9566,36.97,74,98,10.0,overcast clouds
470,Gerash,IR,2022-02-02 21:54:35,27.6652,54.1371,46.54,37,0,1.72,clear sky
471,Grand Gaube,MU,2022-02-02 21:54:35,-20.0064,57.6608,79.38,89,100,18.01,overcast clouds
472,Paamiut,GL,2022-02-02 21:54:36,61.994,-49.6678,7.27,65,100,16.46,overcast clouds
473,Sao Raimundo Das Mangabeiras,BR,2022-02-02 21:54:36,-7.0219,-45.4811,81.1,64,95,4.45,overcast clouds
474,Svencionys,LT,2022-02-02 21:54:36,55.15,26.1667,22.77,95,99,7.78,overcast clouds
475,Grindavik,IS,2022-02-02 21:54:37,63.8424,-22.4338,25.27,68,75,4.61,broken clouds
476,Lyubech,UA,2022-02-02 21:54:37,51.7026,30.6569,27.95,97,98,9.46,overcast clouds
477,Lata,PT,2022-02-02 21:54:37,40.1629,-8.3327,51.93,73,95,2.26,overcast clouds
478,Valdivia,CL,2022-02-02 21:54:38,-39.8142,-73.2459,77.09,59,20,4.32,few clouds
479,Pindiga,NG,2022-02-02 21:54:38,9.9833,10.9333,70.86,15,1,8.23,clear sky
480,Ixtepec,MX,2022-02-02 21:54:38,16.5786,-95.1022,83.79,52,1,16.13,clear sky
481,Dubbo,AU,2022-02-02 21:54:39,-32.25,148.6167,69.93,64,40,8.05,scattered clouds
482,Upernavik,GL,2022-02-02 21:54:39,72.7868,-56.1549,-5.13,69,100,7.65,overcast clouds
483,Locri,IT,2022-02-02 21:54:40,38.2414,16.2623,55.94,75,0,11.79,clear sky
484,Fraserburgh,GB,2022-02-02 21:54:40,57.6874,-2.0184,50.54,86,100,14.23,overcast clouds
485,Davila,PH,2022-02-02 21:54:40,18.4726,120.5763,71.58,75,3,5.01,clear sky
486,Asosa,ET,2022-02-02 21:54:41,10.0667,34.5333,69.17,37,100,3.31,overcast clouds
487,Tabora,TZ,2022-02-02 21:54:41,-5.0167,32.8,63.86,96,100,2.15,light rain
488,Sayyan,YE,2022-02-02 21:52:17,15.1718,44.3244,50.92,58,73,4.38,broken clouds
489,Gashua,NG,2022-02-02 21:54:41,12.871,11.0482,65.1,13,81,10.0,broken clouds
490,Fonte Boa,BR,2022-02-02 21:54:42,-2.4959,-66.2662,76.51,95,100,2.06,light rain
491,Ozernovskiy,RU,2022-02-02 21:54:42,51.5,156.5167,27.5,72,100,4.36,overcast clouds
492,Masunga,BW,2022-02-02 21:54:42,-20.6246,27.4488,71.78,75,94,4.18,light rain
493,Machiques,VE,2022-02-02 21:54:43,10.0644,-72.545,89.26,45,83,8.48,broken clouds
494,Bereda,ES,2022-02-02 21:54:43,43.2686,-7.5406,49.91,100,94,2.19,overcast clouds
495,Coahuayana,MX,2022-02-02 21:54:43,18.7333,-103.6833,83.7,37,0,6.98,clear sky
496,Abu Samrah,SY,2022-02-02 21:54:44,35.3029,37.1841,48.63,56,93,10.89,overcast clouds
497,Sao Jose Da Coroa Grande,BR,2022-02-02 21:54:44,-8.8978,-35.1478,80.44,76,27,10.78,scattered clouds
498,Beringovskiy,RU,2022-02-02 21:54:44,63.05,179.3167,2.34,79,79,20.11,broken clouds
499,Bagdarin,RU,2022-02-02 21:54:45,54.4333,113.6,-20.54,96,5,4.14,clear sky
500,Ode,NG,2022-02-02 21:54:45,7.7899,5.7117,75.2,17,6,4.27,clear sky
501,Lamu,KE,2022-02-02 21:54:45,-2.2717,40.902,79.02,89,100,9.35,overcast clouds
502,Astana,KZ,2022-02-02 21:54:46,51.1801,71.446,3.15,85,100,4.47,smoke
503,Rio Grande,BR,2022-02-02 21:54:46,-32.035,-52.0986,84.31,80,0,18.43,clear sky
504,Cap-Haitien,HT,2022-02-02 21:54:46,19.7578,-72.2042,77.07,78,47,10.8,scattered clouds
505,Madimba,TZ,2022-02-02 21:54:47,-10.4,40.3333,77.88,88,43,4.61,light rain
506,Sao Paulo De Olivenca,BR,2022-02-02 21:54:47,-3.3783,-68.8725,74.53,94,98,3.27,overcast clouds
507,Tura,IN,2022-02-02 21:54:47,25.5198,90.2201,59.99,52,80,3.89,broken clouds
508,Severo-Kurilsk,RU,2022-02-02 21:53:58,50.6789,156.125,27.99,79,98,6.62,overcast clouds
509,Bathsheba,BB,2022-02-02 21:54:48,13.2167,-59.5167,81.21,69,40,13.8,scattered clouds
510,Taywarah,AF,2022-02-02 21:54:48,33.35,64.4167,1.6,89,21,5.17,few clouds
511,Coari,BR,2022-02-02 21:55:48,-4.085,-63.1414,78.64,92,85,1.61,overcast clouds
512,Kabompo,ZM,2022-02-02 21:55:49,-13.5927,24.2008,65.48,93,100,1.01,overcast clouds
513,Borogontsy,RU,2022-02-02 21:55:49,62.6683,131.1683,-38.74,100,55,0.45,broken clouds
514,Bima,ID,2022-02-02 21:55:49,-8.4667,118.7167,74.95,93,72,2.57,broken clouds
515,Talara,PE,2022-02-02 21:55:50,-4.5772,-81.2719,83.16,54,0,19.57,clear sky
516,Sile,TR,2022-02-02 21:55:50,41.1754,29.6133,46.56,76,100,11.97,light rain
517,Zhuhai,CN,2022-02-02 21:53:31,22.2769,113.5678,60.69,87,40,16.11,scattered clouds
518,Srednekolymsk,RU,2022-02-02 21:55:50,67.45,153.6833,-24.21,98,100,1.86,overcast clouds
519,Zorritos,PE,2022-02-02 21:55:51,-3.6805,-80.6782,80.89,66,19,13.67,few clouds
520,Pimenta Bueno,BR,2022-02-02 21:55:51,-11.6725,-61.1936,77.7,92,31,4.27,light rain
521,Vila Do Maio,CV,2022-02-02 21:55:51,15.1333,-23.2167,72.39,80,1,15.28,clear sky
522,Baghdad,IQ,2022-02-02 21:52:06,33.3406,44.4009,44.51,87,0,2.3,clear sky
523,Ust-Uda,RU,2022-02-02 21:55:52,54.1742,103.0304,-18.38,100,94,1.45,overcast clouds
524,Portland,US,2022-02-02 21:53:15,45.5234,-122.6762,46.53,92,100,1.99,light intensity drizzle
525,Yumen,CN,2022-02-02 21:55:52,40.2833,97.2,21.4,35,100,9.66,overcast clouds
526,North Bend,US,2022-02-02 21:55:53,43.4065,-124.2243,51.24,96,100,3.44,mist
527,Bonavista,CA,2022-02-02 21:55:53,48.6499,-53.1147,25.12,69,28,18.88,scattered clouds
528,San Quintin,MX,2022-02-02 21:55:53,30.4833,-115.95,61.68,55,0,11.18,clear sky
529,Darnah,LY,2022-02-02 21:55:41,32.767,22.6367,51.12,75,37,13.8,scattered clouds
530,Sangar,RU,2022-02-02 21:55:54,63.9242,127.4739,-31.32,100,72,2.44,broken clouds
531,Mahibadhoo,MV,2022-02-02 21:55:54,3.7833,72.9667,81.93,71,3,9.19,clear sky
532,Takoradi,GH,2022-02-02 21:55:54,4.8845,-1.7554,80.37,81,1,10.09,clear sky
533,Tacna,PE,2022-02-02 21:55:55,-18.0056,-70.2483,71.8,53,0,10.36,clear sky
534,Bengkulu,ID,2022-02-02 21:51:26,-3.8004,102.2655,76.28,88,97,4.34,overcast clouds
535,Kassala,SD,2022-02-02 21:55:55,15.451,36.4,77.02,43,92,5.82,overcast clouds
536,Olafsvik,IS,2022-02-02 21:55:55,64.8945,-23.7142,30.33,55,98,6.91,snow
537,Landerneau,FR,2022-02-02 21:55:56,48.4525,-4.2525,45.91,100,100,5.75,overcast clouds
538,Umtata,ZA,2022-02-02 21:55:56,-31.5889,28.7844,75.16,66,100,4.38,overcast clouds
539,Merauke,ID,2022-02-02 21:55:56,-8.4667,140.3333,77.02,79,100,4.99,overcast clouds
540,Port Hardy,CA,2022-02-02 21:55:56,50.6996,-127.4199,37.58,93,100,10.36,light rain
541,Beaverlodge,CA,2022-02-02 21:55:57,55.2166,-119.4361,-6.45,94,100,3.15,light snow
542,Moanda,GA,2022-02-02 21:55:57,-1.5575,13.2178,72.36,90,100,2.46,overcast clouds
543,Namibe,AO,2022-02-02 21:53:03,-15.1961,12.1522,73.0,70,83,10.69,broken clouds
544,Buala,SB,2022-02-02 21:53:15,-8.145,159.5921,81.79,79,100,7.63,light rain
545,Maydolong,PH,2022-02-02 21:55:58,11.4992,125.5011,78.49,84,92,13.29,overcast clouds
546,Hanzhong,CN,2022-02-02 21:55:58,33.0728,107.0303,33.73,74,99,2.46,overcast clouds
547,Zaragoza,ES,2022-02-02 21:55:58,41.6561,-0.8773,53.02,48,0,1.99,clear sky
548,Barao De Melgaco,BR,2022-02-02 21:55:59,-16.1944,-55.9675,84.72,88,93,2.55,overcast clouds
549,Sao Gabriel Da Cachoeira,BR,2022-02-02 21:55:59,-0.1303,-67.0892,75.56,94,90,2.19,overcast clouds
550,Sur,OM,2022-02-02 21:55:59,22.5667,59.5289,72.16,57,4,18.99,clear sky
551,Inta,RU,2022-02-02 21:56:00,66.0317,60.1659,12.49,95,100,4.27,overcast clouds
552,Konin,PL,2022-02-02 21:56:00,52.2234,18.2512,31.01,93,41,10.04,light snow
553,Gualaquiza,EC,2022-02-02 21:56:00,-3.4,-78.55,72.68,73,69,2.42,light rain
554,Orocue,CO,2022-02-02 21:56:01,4.7912,-71.3354,97.57,23,65,6.11,broken clouds
555,Novara,IT,2022-02-02 21:56:01,45.5853,8.5778,55.96,68,0,4.61,clear sky
556,Dreux,FR,2022-02-02 21:56:01,48.6667,1.25,46.36,94,89,6.78,overcast clouds
557,Namatanai,PG,2022-02-02 21:57:02,-3.6667,152.4333,79.7,82,100,7.63,light rain
558,Sarkand,KZ,2022-02-02 21:57:02,45.41,79.9186,16.65,65,61,7.76,broken clouds
559,Manavalakurichi,IN,2022-02-02 21:57:02,8.1333,77.3,80.69,66,16,6.33,few clouds
560,Swan Hill,AU,2022-02-02 21:57:02,-35.3378,143.5544,61.16,57,0,16.96,clear sky
561,Krasnoselkup,RU,2022-02-02 21:57:03,65.7,82.4667,-23.57,100,89,5.7,overcast clouds
562,Envira,BR,2022-02-02 21:57:03,-7.3,-70.2167,74.5,95,78,6.29,broken clouds
563,Itarema,BR,2022-02-02 21:54:22,-2.9248,-39.9167,79.88,78,43,11.59,scattered clouds
564,Gamboula,CF,2022-02-02 21:57:04,4.1178,15.1393,73.0,30,35,1.74,scattered clouds
565,Porirua,NZ,2022-02-02 21:57:04,-41.1333,174.85,74.55,83,93,17.63,overcast clouds
566,Kathmandu,NP,2022-02-02 21:56:59,27.7167,85.3167,41.22,100,20,3.44,mist
567,Kiama,AU,2022-02-02 21:57:05,-34.6833,150.8667,67.57,71,92,5.99,overcast clouds
568,Avera,US,2022-02-02 21:57:05,33.194,-82.5271,64.69,75,91,3.51,overcast clouds
569,Jieshi,CN,2022-02-02 21:57:06,22.8134,115.8257,51.94,89,100,11.5,overcast clouds
570,Lubumbashi,CD,2022-02-02 21:57:06,-11.6609,27.4794,63.3,96,100,1.79,overcast clouds
571,Kruisfontein,ZA,2022-02-02 21:54:07,-34.0033,24.7314,69.89,92,100,6.93,light rain
572,Ahipara,NZ,2022-02-02 21:57:07,-35.1667,173.1667,74.41,71,100,13.06,overcast clouds
573,Basco,PH,2022-02-02 21:57:07,20.4487,121.9702,75.45,71,84,15.59,broken clouds
574,Belaya Gora,RU,2022-02-02 21:57:07,68.5333,146.4167,-28.07,100,92,4.23,overcast clouds
575,Koksovyy,RU,2022-02-02 21:57:08,48.1967,40.5989,38.08,97,100,14.45,moderate rain
576,Los Llanos De Aridane,ES,2022-02-02 21:57:08,28.6585,-17.9182,69.12,49,0,1.01,clear sky
577,Gwadar,PK,2022-02-02 21:57:08,25.1216,62.3254,67.91,33,0,16.13,clear sky
578,Shizilu,CN,2022-02-02 21:57:09,35.1711,118.8289,27.86,54,75,0.6,broken clouds
579,Redmond,US,2022-02-02 21:53:16,47.674,-122.1215,43.34,81,100,1.01,overcast clouds
580,Cascais,PT,2022-02-02 21:57:09,38.6979,-9.4215,57.51,67,97,1.01,overcast clouds
581,Akdepe,TM,2022-02-02 21:57:10,42.0551,59.3788,32.09,77,0,9.66,clear sky
582,Boyolangu,ID,2022-02-02 21:57:10,-8.1181,111.8935,74.46,90,78,2.48,broken clouds
583,Takhli,TH,2022-02-02 21:57:10,15.2634,100.3438,78.75,80,9,4.68,clear sky
584,Turukhansk,RU,2022-02-02 21:57:11,65.8167,87.9833,1.13,96,100,6.42,overcast clouds
585,Sorong,ID,2022-02-02 21:56:58,-0.8833,131.25,77.18,88,100,4.45,overcast clouds
586,Tula,RU,2022-02-02 21:57:11,54.2044,37.6111,10.22,97,100,4.12,light snow
587,Tremedal,BR,2022-02-02 21:57:12,-14.9758,-41.4108,71.65,91,88,4.0,overcast clouds
588,Manica,FR,2022-02-02 21:57:12,49.0,-1.1667,45.81,89,100,3.65,overcast clouds
589,Oranjestad,AW,2022-02-02 21:57:12,12.524,-70.027,84.15,70,40,19.57,scattered clouds
590,Corinto,GR,2022-02-02 21:57:13,37.9407,22.9573,46.83,87,97,7.94,overcast clouds
591,Kudahuvadhoo,MV,2022-02-02 21:57:13,2.6708,72.8944,80.85,73,2,6.6,clear sky
592,Santa Isabel Do Rio Negro,BR,2022-02-02 21:54:07,-0.4139,-65.0192,81.81,77,99,4.25,overcast clouds
593,Dzaoudzi,YT,2022-02-02 21:57:14,-12.7887,45.2699,78.69,89,0,2.3,clear sky
594,Izberbash,RU,2022-02-02 21:57:14,42.5696,47.8645,37.45,77,57,8.28,broken clouds
595,Mpika,ZM,2022-02-02 21:57:14,-11.8343,31.4529,61.38,97,64,2.57,light rain
596,Igarka,RU,2022-02-02 21:57:15,67.4667,86.5833,-7.91,100,94,5.82,overcast clouds
597,Springdale,US,2022-02-02 21:57:15,36.1867,-94.1288,25.75,93,100,13.0,overcast clouds
598,Vigia,BR,2022-02-02 21:57:15,-0.8583,-48.1417,82.45,91,98,8.32,moderate rain
599,Moree,AU,2022-02-02 21:57:15,-29.4667,149.85,71.62,94,100,10.36,overcast clouds
600,Tazovskiy,RU,2022-02-02 21:57:16,67.4667,78.7,-13.58,98,98,8.9,overcast clouds
601,Aykhal,RU,2022-02-02 21:57:16,66.0,111.5,-21.23,100,5,3.11,clear sky
602,Nabire,ID,2022-02-02 21:57:16,-3.3667,135.4833,75.58,89,100,2.73,overcast clouds
603,Bhadrachalam,IN,2022-02-02 21:58:17,17.6667,80.8833,64.2,92,4,3.15,clear sky
604,Daru,PG,2022-02-02 21:58:17,-9.0763,143.2092,76.5,79,100,5.68,overcast clouds
605,Brainerd,US,2022-02-02 21:58:18,46.358,-94.2008,3.25,80,86,9.98,overcast clouds
606,Mezen,RU,2022-02-02 21:58:18,65.8522,44.24,8.92,97,98,4.12,overcast clouds
607,Santa Isabel,BR,2022-02-02 21:58:18,-23.3156,-46.2214,73.65,99,100,4.21,moderate rain
608,Gamba,GA,2022-02-02 21:58:18,-2.65,10.0,77.41,87,100,4.5,light rain
609,Skjervoy,NO,2022-02-02 21:58:19,70.0311,20.9714,23.83,70,18,19.93,few clouds
610,Mbanza-Ngungu,CD,2022-02-02 21:58:19,-5.25,14.8667,68.05,91,100,3.47,light rain
611,Nikolayevsk-Na-Amure,RU,2022-02-02 21:58:20,53.1406,140.73,-4.49,96,99,6.69,overcast clouds
612,Olga,RU,2022-02-02 21:58:20,43.7444,135.2892,11.59,57,38,12.26,scattered clouds
613,Kibala,TD,2022-02-02 21:58:20,9.1104,18.3463,75.15,27,0,6.91,clear sky
614,Punganuru,IN,2022-02-02 21:58:21,13.3667,78.5833,61.41,80,7,3.4,clear sky
615,Surt,LY,2022-02-02 21:58:21,31.2089,16.5887,55.65,74,80,24.63,broken clouds
616,San Andres,CO,2022-02-02 21:57:50,12.5847,-81.7006,84.22,70,20,11.5,few clouds
617,Pietarsaari,FI,2022-02-02 21:58:21,63.65,22.6833,11.89,96,97,4.12,overcast clouds
618,El Arenal,MX,2022-02-02 21:58:22,20.7833,-103.7,80.92,25,0,7.9,clear sky
619,Maralal,KE,2022-02-02 21:58:22,1.0968,36.698,59.49,74,97,3.76,overcast clouds
620,Lonavale,IN,2022-02-02 21:58:22,18.75,73.4167,62.64,67,5,0.65,clear sky
621,Loandjili,CG,2022-02-02 21:58:23,-4.7561,11.8578,77.11,88,40,5.75,scattered clouds
622,Sekovici,BA,2022-02-02 21:58:23,44.2986,18.8528,35.64,88,97,6.13,overcast clouds
623,Iraucuba,BR,2022-02-02 21:58:23,-3.7461,-39.7833,79.2,70,53,4.79,broken clouds
624,Carbonia,IT,2022-02-02 21:58:23,39.1672,8.5222,52.99,80,60,10.92,broken clouds
625,Qaqortoq,GL,2022-02-02 21:58:24,60.7167,-46.0333,0.75,69,56,7.52,broken clouds
626,Mosquera,CO,2022-02-02 21:58:07,4.7059,-74.2302,64.49,55,40,10.36,scattered clouds
627,Flin Flon,CA,2022-02-02 21:58:24,54.7682,-101.865,-11.36,53,0,11.5,clear sky
628,Dwarka,IN,2022-02-02 21:58:25,22.2394,68.9678,72.79,82,4,18.92,clear sky
629,Jamame,SO,2022-02-02 21:58:25,0.0722,42.7506,78.17,86,100,11.43,overcast clouds
630,Aswan,EG,2022-02-02 21:58:25,24.0934,32.907,60.1,38,0,8.05,clear sky
631,Port-Gentil,GA,2022-02-02 21:58:25,-0.7193,8.7815,80.26,80,18,9.55,light rain
632,Monastyrshchina,RU,2022-02-02 21:58:26,54.3496,31.838,24.58,96,100,8.59,snow
633,Mitsamiouli,KM,2022-02-02 21:58:26,-11.3847,43.2844,81.14,75,80,1.5,light rain
634,Mokhsogollokh,RU,2022-02-02 21:58:26,61.4681,128.9203,-27.44,100,95,0.92,overcast clouds
635,Tautira,PF,2022-02-02 21:58:27,-17.7333,-149.15,86.02,77,16,17.43,light rain
636,Puerto Cabezas,NI,2022-02-02 21:58:27,14.0351,-83.3888,82.36,89,40,6.91,scattered clouds
637,Pueblo Nuevo,MX,2022-02-02 21:58:27,23.3833,-105.3833,62.31,21,2,8.66,clear sky
638,Sao Joao Da Barra,BR,2022-02-02 21:56:36,-21.6403,-41.0511,77.09,89,100,7.36,moderate rain
639,Daye,CN,2022-02-02 21:58:28,30.0833,114.95,37.67,90,100,2.91,overcast clouds
640,Dunedin,NZ,2022-02-02 21:55:40,-45.8742,170.5036,55.94,94,100,12.44,light rain
641,Williams Lake,CA,2022-02-02 21:58:24,52.1415,-122.1445,13.57,86,100,1.99,snow
642,Cururupu,BR,2022-02-02 21:58:28,-1.8283,-44.8683,74.71,94,99,3.36,overcast clouds
643,Shingu,JP,2022-02-02 21:58:29,33.7333,135.9833,43.92,74,98,5.21,overcast clouds
644,Wagga Wagga,AU,2022-02-02 21:58:29,-35.1167,147.3667,63.61,94,75,0.0,broken clouds
645,Kankipadu,IN,2022-02-02 21:58:29,16.45,80.7833,64.47,89,18,2.98,few clouds
646,Oriximina,BR,2022-02-02 21:58:30,-1.7656,-55.8661,78.98,78,64,5.26,broken clouds
647,Tecolutla,MX,2022-02-02 21:58:30,20.4833,-97.0167,76.46,82,25,11.43,scattered clouds
648,Waddan,LY,2022-02-02 21:54:50,29.1614,16.139,48.04,58,20,11.07,few clouds
649,Kalga,RU,2022-02-02 21:58:30,50.9251,118.898,-16.91,94,47,5.32,scattered clouds
650,Anchorage,US,2022-02-02 21:56:18,61.2181,-149.9003,21.67,86,0,1.99,clear sky
651,Pedernales,DO,2022-02-02 21:58:31,18.0384,-71.744,81.77,66,7,4.16,clear sky
652,Zabol,AF,2022-02-02 21:59:31,32.25,67.25,32.68,76,1,6.89,clear sky
653,Pilar,BR,2022-02-02 21:59:31,-9.5972,-35.9567,80.53,75,17,8.32,few clouds
654,Zhigansk,RU,2022-02-02 21:59:32,66.7697,123.3711,-12.3,99,100,6.71,light snow
655,Maunabo,PR,2022-02-02 21:59:32,18.0072,-65.8993,81.64,80,5,10.58,clear sky
656,Palia Kalan,IN,2022-02-02 21:59:32,28.45,80.5833,53.92,62,89,7.14,overcast clouds
657,Mbandaka,CD,2022-02-02 21:59:33,0.0487,18.2603,75.6,52,100,1.57,overcast clouds
658,Kangaatsiaq,GL,2022-02-02 21:59:33,68.3065,-53.4641,-6.68,82,100,16.84,overcast clouds
659,College,US,2022-02-02 21:55:39,64.8569,-147.8028,-7.42,72,0,0.0,clear sky
660,Northam,GB,2022-02-02 21:59:34,51.0333,-4.2167,48.02,90,100,9.04,overcast clouds
661,Faget,RO,2022-02-02 21:59:34,45.85,22.1833,35.46,99,100,3.8,overcast clouds
662,Svetlogorsk,BY,2022-02-02 21:55:23,52.6333,29.7333,28.89,97,99,8.97,light snow
663,Canelli,IT,2022-02-02 21:59:34,44.7215,8.2924,53.83,59,0,3.27,clear sky
664,Antofagasta,CL,2022-02-02 21:59:35,-23.65,-70.4,69.08,73,7,10.56,clear sky
665,Beroroha,MG,2022-02-02 21:59:35,-21.6667,45.1667,74.97,66,4,6.08,clear sky
666,Washougal,US,2022-02-02 21:59:35,45.5826,-122.3534,46.38,96,100,1.99,light intensity drizzle
667,Makakilo City,US,2022-02-02 21:55:07,21.3469,-158.0858,79.02,57,100,3.44,overcast clouds
668,Lanzhou,CN,2022-02-02 21:59:36,36.0564,103.7922,16.88,69,90,0.81,overcast clouds
669,Bilokurakyne,UA,2022-02-02 21:59:36,49.5341,38.7307,33.3,100,100,2.89,snow
670,Kuandian,CN,2022-02-02 21:59:36,40.7286,124.7847,5.47,81,0,2.59,clear sky
671,Guiratinga,BR,2022-02-02 21:59:37,-16.3494,-53.7583,74.66,89,45,3.98,scattered clouds
672,Kayes,ML,2022-02-02 21:59:37,14.0,-11.0,81.57,10,13,9.22,few clouds
673,Lebedinyy,RU,2022-02-02 21:59:37,58.5167,125.5167,-17.86,100,100,1.95,overcast clouds
674,Biltine,TD,2022-02-02 21:59:38,14.5333,20.9167,64.58,12,1,6.2,clear sky
675,Labrea,BR,2022-02-02 21:59:38,-7.2586,-64.7981,74.35,99,100,2.19,moderate rain
676,Synya,RU,2022-02-02 21:59:38,65.3718,58.0387,16.43,94,100,7.61,overcast clouds
677,Adre,TD,2022-02-02 21:59:39,13.4667,22.2,64.9,20,5,9.15,clear sky
678,Zhongxing,CN,2022-02-02 21:59:39,33.7039,118.6792,30.83,75,63,4.32,broken clouds
679,Fuling,CN,2022-02-02 21:59:39,29.7022,107.3919,39.76,90,80,1.1,broken clouds
680,Cervo,ES,2022-02-02 21:59:40,43.6702,-7.4101,53.96,80,90,8.14,overcast clouds
681,Vostok,RU,2022-02-02 21:59:40,46.4856,135.8833,-6.92,99,100,3.58,overcast clouds
682,Presidencia Roque Saenz Pena,AR,2022-02-02 21:59:40,-26.7852,-60.4388,99.41,18,67,4.65,broken clouds
683,Vila,PT,2022-02-02 21:59:41,42.0304,-8.1588,44.33,73,95,3.8,overcast clouds
684,Pringsewu,ID,2022-02-02 21:59:41,-5.3582,104.9744,72.5,95,79,1.16,broken clouds
685,Damaturu,NG,2022-02-02 21:59:41,11.747,11.9608,62.71,23,4,8.23,clear sky
686,Axim,GH,2022-02-02 21:59:02,4.8699,-2.2405,80.33,81,9,9.82,clear sky
687,Edd,ER,2022-02-02 21:59:42,13.9297,41.6925,79.86,71,100,10.38,overcast clouds
688,Bow Island,CA,2022-02-02 21:59:42,49.8668,-111.3684,1.99,71,96,0.0,overcast clouds
689,Saint-Georges,GD,2022-02-02 21:56:47,12.0564,-61.7485,82.08,74,75,20.71,broken clouds
690,Malangali,TZ,2022-02-02 21:59:42,-8.5667,34.85,64.09,92,100,1.61,light rain
691,Mandera,KE,2022-02-02 21:59:43,3.9366,41.867,83.55,34,95,5.03,overcast clouds
692,Vilyuysk,RU,2022-02-02 21:59:43,63.7553,121.6247,-16.98,98,100,5.21,overcast clouds
693,Phan Thiet,VN,2022-02-02 21:59:43,10.9333,108.1,71.46,85,2,6.82,clear sky
694,Cabedelo,BR,2022-02-02 21:59:44,-6.9811,-34.8339,83.07,72,48,13.2,scattered clouds
695,Hirara,JP,2022-02-02 22:00:44,24.8,125.2833,70.07,88,75,8.05,broken clouds
696,Stornoway,GB,2022-02-02 22:00:44,58.2093,-6.3865,48.16,93,75,5.01,heavy intensity rain
697,Kysyl-Syr,RU,2022-02-02 22:00:45,63.8986,122.7617,-15.05,98,100,4.79,overcast clouds
698,Ambilobe,MG,2022-02-02 21:56:25,-13.2,49.05,73.67,95,99,1.7,overcast clouds
699,Pochutla,MX,2022-02-02 22:00:45,15.7432,-96.4661,86.83,47,0,9.6,clear sky
700,Luhyny,UA,2022-02-02 22:00:46,51.082,28.4006,32.77,97,100,7.72,overcast clouds
701,Gua Musang,MY,2022-02-02 22:00:46,4.8823,101.9644,71.58,99,80,1.14,broken clouds
702,Pundaguitan,PH,2022-02-02 22:00:47,6.3711,126.1689,76.89,84,100,18.77,overcast clouds
703,Bull Savanna,JM,2022-02-02 22:00:47,17.8868,-77.5902,78.13,69,3,14.81,clear sky
704,Bowen,AU,2022-02-02 21:56:00,-20.0167,148.2333,79.02,77,100,2.21,overcast clouds
705,Morant Bay,JM,2022-02-02 22:00:48,17.8815,-76.4093,78.66,74,1,10.58,clear sky
706,Susanino,RU,2022-02-02 22:00:48,58.1461,41.5872,15.96,96,96,5.61,overcast clouds
707,Saginaw,US,2022-02-02 22:00:49,43.3334,-84.0333,27.39,87,100,11.5,light snow
708,Tamandare,BR,2022-02-02 21:56:40,-8.7597,-35.1047,80.29,76,27,10.33,scattered clouds
709,Severnoye,RU,2022-02-02 22:00:49,56.3491,78.3619,2.71,100,100,6.62,overcast clouds
710,Caceres,ES,2022-02-02 22:00:50,39.522,-6.3748,48.79,75,56,1.36,broken clouds
711,Kushima,JP,2022-02-02 22:00:50,31.4583,131.2333,44.64,91,100,6.17,light rain
712,Punta Alta,AR,2022-02-02 22:00:50,-38.8759,-62.0736,83.95,41,99,3.33,overcast clouds
713,Kismayo,SO,2022-02-02 22:00:51,-0.3582,42.5454,78.76,88,100,15.61,overcast clouds
714,Ulladulla,AU,2022-02-02 22:00:51,-35.35,150.4667,65.88,64,88,13.62,overcast clouds
715,Mayya,RU,2022-02-02 22:00:52,61.7333,130.2811,-34.69,100,93,1.14,overcast clouds
716,Maragogi,BR,2022-02-02 22:00:52,-9.0122,-35.2225,80.35,76,19,10.11,few clouds
